[{"name":"\ub300\uc804\uace0\ub4f1\ud559\uad50","kind":"\uc790\uc728\uace0\ub4f1\ud559\uad50","address":"\ub300\uc804\uad11\uc5ed\uc2dc \uc911\uad6c \ub300\ud765\ub3d9","medical":0,"dent":0,"ori":0,"vet":0,"medicine":0,"total":0,"formatted_address":"110 Daeheung-ro, Jung-gu, Daejeon, South Korea","lat":36.3220349,"lng":127.4240267},{"name":"\uc0c1\uc0b0\uace0\ub4f1\ud559\uad50","kind":"\uc790\uc728\uace0\ub4f1\ud559\uad50","address":"\uc804\ub77c\ubd81\ub3c4 \uc804\uc8fc\uc2dc \uc644\uc0b0\uad6c \ud6a8\uc790\ub3d91\uac001","medical":26,"dent":27,"ori":23,"vet":8,"medicine":422,"total":26,"formatted_address":"130 Geomapyeong-ro, Wansan-gu, Jeonju, Jeollabuk-do, South Korea","lat":35.8044177,"lng":127.1186993},{"name":"\ud718\ubb38\uace0\ub4f1\ud559\uad50","kind":"\uc790\uc728\uace0\ub4f1\ud559\uad50","address":"\uc11c\uc6b8\ud2b9\ubcc4\uc2dc \uac15\ub0a8\uad6c \ub300\uce58\ub3d91","medical":51,"dent":15,"ori":21,"vet":5,"medicine":332,"total":25,"formatted_address":"541 Yeoksam-ro, Gangnam-gu, Seoul, South Korea","lat":37.504951,"lng":127.0620662},{"name":"\uac15\uc11c\uace0\ub4f1\ud559\uad50","kind":"\uc77c\ubc18\uace0\ub4f1\ud559\uad50","address":"\uc11c\uc6b8\ud2b9\ubcc4\uc2dc \uc591\ucc9c\uad6c \ubaa9\ub3d9","medical":72,"dent":11,"ori":15,"vet":3,"medicine":181,"total":19,"formatted_address":"27 Mokdongjungangnam-ro, Yangcheon-gu, Seoul, South Korea","lat":37.5364895,"lng":126.8663661},{"name":"\uacbd\uc2e0\uace0\ub4f1\ud559\uad50","kind":"\uc77c\ubc18\uace0\ub4f1\ud559\uad50","address":"\ub300\uad6c\uad11\uc5ed\uc2dc \uc218\uc131\uad6c \ubc94\uc5b4\ub3d9","medical":73,"dent":10,"ori":6,"vet":5,"medicine":161,"total":10,"formatted_address":"74 Hyehwa-ro, Jongno-gu, Seoul, South Korea","lat":37.5921987,"lng":127.0002166},{"name":"\uc219\uba85\uc5ec\uc790\uace0\ub4f1\ud559\uad50","kind":"\uc77c\ubc18\uace0\ub4f1\ud559\uad50","address":"\uc11c\uc6b8\ud2b9\ubcc4\uc2dc \uac15\ub0a8\uad6c \ub3c4\uace1\ub3d9","medical":45,"dent":7,"ori":6,"vet":1,"medicine":421,"total":1,"formatted_address":"2807 Nambusunhwan-ro, Gangnam-gu, Seoul, South Korea","lat":37.4907295,"lng":127.0533366},{"name":"\uc138\ud654\uace0\ub4f1\ud559\uad50","kind":"\uc790\uc728\uace0\ub4f1\ud559\uad50","address":"\uc11c\uc6b8\ud2b9\ubcc4\uc2dc \uc11c\ucd08\uad6c \ubc18\ud3ec\ub3d9","medical":96,"dent":0,"ori":0,"vet":0,"medicine":0,"total":96,"formatted_address":"56-7 Sinbanpo-ro, Seocho-gu, Seoul, South Korea","lat":37.5021638,"lng":126.9932495},{"name":"\uc911\ub3d9\uace0\ub4f1\ud559\uad50","kind":"\uc790\uc728\uace0\ub4f1\ud559\uad50","address":"\uc11c\uc6b8\ud2b9\ubcc4\uc2dc \uac15\ub0a8\uad6c \uc77c\uc6d0\ub3d9","medical":65,"dent":6,"ori":9,"vet":0,"medicine":15,"total":95,"formatted_address":"7 Irwon-ro, Gangnam-gu, Seoul, South Korea","lat":37.4933789,"lng":127.0800728},{"name":"\ub099\uc0dd\uace0\ub4f1\ud559\uad50","kind":"\uc77c\ubc18\uace0\ub4f1\ud559\uad50","address":"\uacbd\uae30\ub3c4 \uc131\ub0a8\uc2dc \ubd84\ub2f9\uad6c \ud310\uad50\ub3d9","medical":48,"dent":9,"ori":13,"vet":2,"medicine":21,"total":93,"formatted_address":"477 Daewangpangyo-ro, Bundang-gu, Seongnam-si, Gyeonggi-do, South Korea","lat":37.3870312,"lng":127.1009071},{"name":"\ud604\ub300\uccad\uc6b4\uace0\ub4f1\ud559\uad50","kind":"\uc790\uc728\uace0\ub4f1\ud559\uad50","address":"\uc6b8\uc0b0\uad11\uc5ed\uc2dc \ub3d9\uad6c \uc11c\ubd80\ub3d9","medical":53,"dent":9,"ori":3,"vet":0,"medicine":18,"total":83,"formatted_address":"1077 Bangeojinsunhwan-doro, Dong-gu, Ulsan, South Korea","lat":35.536625,"lng":129.4282937},{"name":"\ud3ec\ud56d\uc81c\ucca0\uace0\ub4f1\ud559\uad50","kind":"\uc790\uc728\uace0\ub4f1\ud559\uad50","address":"\uacbd\uc0c1\ubd81\ub3c4 \ud3ec\ud56d\uc2dc \ub0a8\uad6c \uc9c0\uace1\ub3d9","medical":48,"dent":3,"ori":4,"vet":1,"medicine":18,"total":74,"formatted_address":"40 Jigok-ro 212beon-gil, Nam-gu, Pohang, Gyeongsangbuk-do, South Korea","lat":36.0290023,"lng":129.3280163},{"name":"\ub2e8\uad6d\ub300\ud559\uad50\uc0ac\ubc94\ub300\ud559\ubd80\uc18d\uace0\ub4f1\ud559\uad50","kind":"\uc77c\ubc18\uace0\ub4f1\ud559\uad50","address":"\uc11c\uc6b8\ud2b9\ubcc4\uc2dc \uac15\ub0a8\uad6c \ub300\uce58\ub3d9","medical":52,"dent":3,"ori":4,"vet":5,"medicine":10,"total":74,"formatted_address":"21 Dogok-ro 64-gil, Daechi 1(il)-dong, Gangnam-gu, Seoul, South Korea","lat":37.4956302,"lng":127.0566864},{"name":"\ud654\uc131\uace0\ub4f1\ud559\uad50","kind":"\uc77c\ubc18\uace0\ub4f1\ud559\uad50","address":"\uacbd\uae30\ub3c4 \ud654\uc131\uc2dc \ud5a5\ub0a8\uc74d \uc7a5\uc9d0\ub9ac","medical":37,"dent":3,"ori":15,"vet":1,"medicine":14,"total":70,"formatted_address":"4 Jangjim-gil, Hyangnam-eup, Hwaseong-si, Gyeonggi-do, South Korea","lat":37.1390177,"lng":126.906657},{"name":"\ub300\ub95c\uace0\ub4f1\ud559\uad50","kind":"\uc77c\ubc18\uace0\ub4f1\ud559\uad50","address":"\ub300\uad6c\uad11\uc5ed\uc2dc \uc218\uc131\uad6c \ub9cc\ucd0c\ub3d9","medical":40,"dent":5,"ori":3,"vet":0,"medicine":13,"total":61,"formatted_address":"2700 Dalgubeol-daero, Suseong-gu, Daegu, South Korea","lat":35.8522319,"lng":128.6559927},{"name":"\ud55c\uc77c\uace0\ub4f1\ud559\uad50","kind":"\uc77c\ubc18\uace0\ub4f1\ud559\uad50","address":"\ucda9\uccad\ub0a8\ub3c4 \uacf5\uc8fc\uc2dc \uc815\uc548\uba74 \uad11\uc815\ub9ac","medical":34,"dent":6,"ori":6,"vet":4,"medicine":11,"total":61,"formatted_address":"81 eomul-gil, Jeongan-myeon, Gongju, Chungcheongnam-do, South Korea","lat":36.6045324,"lng":127.1304108},{"name":"\ud574\uc6b4\ub300\uace0\ub4f1\ud559\uad50","kind":"\uc790\uc728\uace0\ub4f1\ud559\uad50","address":"\ubd80\uc0b0\uad11\uc5ed\uc2dc \ud574\uc6b4\ub300\uad6c \uc6b0\ub3d9","medical":41,"dent":5,"ori":0,"vet":2,"medicine":13,"total":61,"formatted_address":"43 Udong 3-ro 11beon-gil, Haeundae, Busan, South Korea","lat":35.1715293,"lng":129.1624392},{"name":"\uc9c4\uc120\uc5ec\uc790\uace0\ub4f1\ud559\uad50","kind":"\uc77c\ubc18\uace0\ub4f1\ud559\uad50","address":"\uc11c\uc6b8\ud2b9\ubcc4\uc2dc \uac15\ub0a8\uad6c \uc5ed\uc0bc\ub3d9","medical":38,"dent":3,"ori":3,"vet":1,"medicine":14,"total":59,"formatted_address":"27 Seolleung-ro 85-gil, Gangnam-gu, Seoul, South Korea","lat":37.501754,"lng":127.0476387},{"name":"\uc591\uc815\uace0\ub4f1\ud559\uad50","kind":"\uc790\uc728\uace0\ub4f1\ud559\uad50","address":"\uc11c\uc6b8\ud2b9\ubcc4\uc2dc \uc591\ucc9c\uad6c \ubaa9\ub3d9","medical":22,"dent":8,"ori":4,"vet":2,"medicine":20,"total":56,"formatted_address":"1039 Annyangcheon-ro, Yangcheon-gu, Seoul, South Korea","lat":37.5347501,"lng":126.8871706},{"name":"\ub2a5\uc778\uace0\ub4f1\ud559\uad50","kind":"\uc77c\ubc18\uace0\ub4f1\ud559\uad50","address":"\ub300\uad6c\uad11\uc5ed\uc2dc \uc218\uc131\uad6c \uc9c0\uc0b0\ub3d9","medical":34,"dent":5,"ori":6,"vet":0,"medicine":8,"total":53,"formatted_address":"207 Muhak -ro, Suseong-gu, Daegu, South Korea","lat":35.8317908,"lng":128.6324892},{"name":"\ubaa9\ub3d9\uace0\ub4f1\ud559\uad50","kind":"\uc77c\ubc18\uace0\ub4f1\ud559\uad50","address":"\uc11c\uc6b8\ud2b9\ubcc4\uc2dc \uc591\ucc9c\uad6c \uc2e0\uc815\ub3d9","medical":22,"dent":7,"ori":4,"vet":4,"medicine":15,"total":52,"formatted_address":"68 Mokdongdong-ro 2-gil, Yangcheon-gu, Seoul, South Korea","lat":37.5089842,"lng":126.8607326},{"name":"\uacf5\uc8fc\ub300\ud559\uad50\uc0ac\ubc94\ub300\ud559\ubd80\uc124\uace0\ub4f1\ud559\uad50","kind":"\uc77c\ubc18\uace0\ub4f1\ud559\uad50","address":"\ucda9\uccad\ub0a8\ub3c4 \uacf5\uc8fc\uc2dc \ubc18\uc8fd\ub3d9","medical":14,"dent":6,"ori":10,"vet":0,"medicine":17,"total":47,"formatted_address":"75 Bonghwang-ro, Gongju, Chungcheongnam-do, South Korea","lat":36.4526452,"lng":127.1196725},{"name":"\uc0c1\ubb38\uace0\ub4f1\ud559\uad50","kind":"\uc77c\ubc18\uace0\ub4f1\ud559\uad50","address":"\uc11c\uc6b8\ud2b9\ubcc4\uc2dc \uc11c\ucd08\uad6c \ubc29\ubc30\ub3d9","medical":24,"dent":2,"ori":7,"vet":1,"medicine":10,"total":44,"formatted_address":"45 Myeongdal-ro, Seocho-gu, Seoul, South Korea","lat":37.4794364,"lng":127.0048375},{"name":"\ucda9\ub0a8\uace0\ub4f1\ud559\uad50","kind":"\uc790\uc728\ud615\uacf5\ub9bd\uace0","address":"\ub300\uc804\uad11\uc5ed\uc2dc \uc11c\uad6c \ub454\uc0b0\ub3d9","medical":31,"dent":4,"ori":4,"vet":0,"medicine":4,"total":43,"formatted_address":"171 Munjeong-ro, Seo-gu, Daejeon, South Korea","lat":36.3500199,"lng":127.3943901},{"name":"\uae40\ucc9c\uace0\ub4f1\ud559\uad50","kind":"\uc790\uc728\uace0\ub4f1\ud559\uad50","address":"\uacbd\uc0c1\ubd81\ub3c4 \uae40\ucc9c\uc2dc \ubd80\uace1\ub3d9","medical":18,"dent":4,"ori":8,"vet":1,"medicine":10,"total":41,"formatted_address":"90 Songseol-ro, Gimcheon, Gyeongsangbuk-do, South Korea","lat":36.1223965,"lng":128.0928192},{"name":"\uc7a0\uc2e4\uc5ec\uc790\uace0\ub4f1\ud559\uad50","kind":"\uc77c\ubc18\uace0\ub4f1\ud559\uad50","address":"\uc11c\uc6b8\ud2b9\ubcc4\uc2dc \uc1a1\ud30c\uad6c \uc1a1\ud30c\ub3d9","medical":19,"dent":4,"ori":3,"vet":0,"medicine":15,"total":41,"formatted_address":"8 Songpa-daero 38-gil, Songpa 2(i)-dong, Songpa-gu, Seoul, South Korea","lat":37.5022547,"lng":127.113014},{"name":"\ubc18\ud3ec\uace0\ub4f1\ud559\uad50","kind":"\uc77c\ubc18\uace0\ub4f1\ud559\uad50","address":"\uc11c\uc6b8\ud2b9\ubcc4\uc2dc \uc11c\ucd08\uad6c \ubc18\ud3ec\ub3d9","medical":20,"dent":5,"ori":2,"vet":2,"medicine":10,"total":39,"formatted_address":"71 Gomurae-ro, Seocho-gu, Seoul, South Korea","lat":37.5021267,"lng":127.0162454},{"name":"\ub300\uad6c\uc5ec\uc790\uace0\ub4f1\ud559\uad50","kind":"\uc77c\ubc18\uace0","address":"\ub300\uad6c\uad11\uc5ed\uc2dc \uc218\uc131\uad6c \ubc94\uc5b4\ub3d9","medical":26,"dent":4,"ori":2,"vet":0,"medicine":6,"total":38,"formatted_address":"17 Dalgubeol-daero 488-gil, Suseong-gu, Daegu, South Korea","lat":35.8562356,"lng":128.630221},{"name":"\uc9c4\uba85\uc5ec\uc790\uace0\ub4f1\ud559\uad50","kind":"\uc77c\ubc18\uace0\ub4f1\ud559\uad50","address":"\uc11c\uc6b8\ud2b9\ubcc4\uc2dc \uc591\ucc9c\uad6c \ubaa9\ub3d9","medical":12,"dent":2,"ori":7,"vet":0,"medicine":16,"total":37,"formatted_address":"170 Mokdong-ro, Yangcheon-gu, Seoul, South Korea","lat":37.5238817,"lng":126.866341},{"name":"\uc815\ud654\uc5ec\uc790\uace0\ub4f1\ud559\uad50","kind":"\uc77c\ubc18\uace0\ub4f1\ud559\uad50","address":"\ub300\uad6c\uad11\uc5ed\uc2dc \uc218\uc131\uad6c \ubc94\uc5b4\ub3d9","medical":24,"dent":1,"ori":1,"vet":0,"medicine":11,"total":37,"formatted_address":"123 Cheongho-ro 84-gil, Suseong-gu, Daegu, South Korea","lat":35.8502489,"lng":128.6411603},{"name":"\ub300\uc804\ub300\uc131\uace0\ub4f1\ud559\uad50","kind":"\uc790\uc728\uace0\ub4f1\ud559\uad50","address":"\ub300\uc804\uad11\uc5ed\uc2dc \uc911\uad6c \ubaa9\ub3d9","medical":16,"dent":5,"ori":7,"vet":0,"medicine":9,"total":37,"formatted_address":"23 Mokdong-ro, Jung-gu, Daejeon, South Korea","lat":36.3325444,"lng":127.4074351},{"name":"\uc138\ud654\uc5ec\uc790\uace0\ub4f1\ud559\uad50","kind":"\uc790\uc728\uace0\ub4f1\ud559\uad50","address":"\uc11c\uc6b8\ud2b9\ubcc4\uc2dc \uc11c\ucd08\uad6c \ubc18\ud3ec\ub3d9","medical":15,"dent":3,"ori":3,"vet":0,"medicine":15,"total":36,"formatted_address":"56-7 Sinbanpo-ro, Seocho-gu, Seoul, South Korea","lat":37.5021638,"lng":126.9932495},{"name":"\uc2e0\uc131\uace0\ub4f1\ud559\uad50","kind":"\uc77c\ubc18\uace0\ub4f1\ud559\uad50","address":"\uacbd\uae30\ub3c4 \uc548\uc591\uc2dc \ub9cc\uc548\uad6c \uc548\uc591\ub3d9","medical":20,"dent":5,"ori":3,"vet":2,"medicine":5,"total":35,"formatted_address":"\uc0b0110 Anyang 6(yuk)-dong, Manan-gu, Anyang, Gyeonggi-do, South Korea","lat":37.3841671,"lng":126.9188138},{"name":"\uc21c\ucc9c\ub9e4\uc0b0\uace0\ub4f1\ud559\uad50","kind":"\uc77c\ubc18\uace0\ub4f1\ud559\uad50","address":"\uc804\ub77c\ub0a8\ub3c4 \uc21c\ucc9c\uc2dc \ub9e4\uace1\ub3d9","medical":21,"dent":3,"ori":3,"vet":5,"medicine":3,"total":35,"formatted_address":"58 Yeongdong-gil, Suncheon, Jeollanam-do, South Korea","lat":34.9580121,"lng":127.480429},{"name":"\ud55c\uac00\ub78c\uace0\ub4f1\ud559\uad50","kind":"\uc790\uc728\uace0\ub4f1\ud559\uad50","address":"\uc11c\uc6b8\ud2b9\ubcc4\uc2dc \uc591\ucc9c\uad6c \ubaa9\ub3d9 ","medical":13,"dent":0,"ori":5,"vet":3,"medicine":13,"total":34,"formatted_address":"15 Mokdongseo-ro, Yangcheon-gu, Seoul, South Korea","lat":37.5376281,"lng":126.8841248},{"name":"\ubc30\uc7ac\uace0\ub4f1\ud559\uad50","kind":"\uc790\uc728\uace0\ub4f1\ud559\uad50","address":"\uc11c\uc6b8\ud2b9\ubcc4\uc2dc \uac15\ub3d9\uad6c \uace0\ub355\ub3d9","medical":21,"dent":5,"ori":4,"vet":1,"medicine":2,"total":33,"formatted_address":"227 Godeok-ro, Gangdong-gu, Seoul, South Korea","lat":37.5558123,"lng":127.1504916},{"name":"\ubcf4\uc778\uace0\ub4f1\ud559\uad50","kind":"\uc790\uc728\uace0\ub4f1\ud559\uad50","address":"\uc11c\uc6b8\ud2b9\ubcc4\uc2dc \uc1a1\ud30c\uad6c \uc624\uae08\ub3d9","medical":18,"dent":5,"ori":1,"vet":0,"medicine":6,"total":30,"formatted_address":"18 Ogeum-ro 49-gil, Songpa-gu, Seoul, South Korea","lat":37.497266,"lng":127.1388757},{"name":"\ud558\ub098\uace0\ub4f1\ud559\uad50","kind":"\uc790\uc728\uace0\ub4f1\ud559\uad50","address":"\uc11c\uc6b8\ud2b9\ubcc4\uc2dc \uc740\ud3c9\uad6c \uc9c4\uad00\ub3d9","medical":13,"dent":3,"ori":2,"vet":1,"medicine":11,"total":30,"formatted_address":"535 Yeonseo-ro, Jingwan-dong, Eunpyeong-gu, Seoul, South Korea","lat":37.6409443,"lng":126.9367183},{"name":"\uc591\uc11c\uace0\ub4f1\ud559\uad50","kind":"\uc77c\ubc18\uace0\ub4f1\ud559\uad50","address":"\uacbd\uae30\ub3c4 \uc591\ud3c9\uad70 \uc591\uc11c\uba74 \uc6a9\ub2f4\ub9ac","medical":14,"dent":4,"ori":3,"vet":0,"medicine":8,"total":29,"formatted_address":"31-12 Sangchon-gil, Yangseo-myeon, Yangpyeong, Gyeonggi-do, South Korea","lat":37.5475768,"lng":127.3280884},{"name":"\ubd81\uc77c\uace0\ub4f1\ud559\uad50","kind":"\uc790\uc728\uace0\ub4f1\ud559\uad50","address":"\ucda9\uccad\ub0a8\ub3c4 \ucc9c\uc548\uc2dc \ub3d9\ub0a8\uad6c \uc2e0\ubd80\ub3d9","medical":17,"dent":3,"ori":0,"vet":3,"medicine":6,"total":29,"formatted_address":"69 Dan-daero, Dongnam-gu, Cheonan, Chungcheongnam-do, South Korea","lat":36.8318652,"lng":127.1581744},{"name":"\uc120\ub355\uace0\ub4f1\ud559\uad50","kind":"\uc790\uc728\uace0\ub4f1\ud559\uad50","address":"\uc11c\uc6b8\ud2b9\ubcc4\uc2dc \ub3c4\ubd09\uad6c \uc30d\ubb38\ub3d9","medical":20,"dent":2,"ori":2,"vet":4,"medicine":1,"total":29,"formatted_address":"53 Sirubong-ro, Dobong-gu, Seoul, South Korea","lat":37.6544953,"lng":127.026558},{"name":"\uacbd\ubd81\uace0\ub4f1\ud559\uad50","kind":"\uc77c\ubc18\uace0\ub4f1\ud559\uad50","address":"\ub300\uad6c\uad11\uc5ed\uc2dc \uc218\uc131\uad6c \ud669\uae08\ub3d9","medical":25,"dent":0,"ori":0,"vet":0,"medicine":3,"total":28,"formatted_address":"300 Cheongho-ro, Suseong-gu, Daegu, South Korea","lat":35.8444499,"lng":128.6406387},{"name":"\uc778\ucc9c\ud3ec\uc2a4\ucf54\uace0\ub4f1\ud559\uad50","kind":"\uc790\uc728\uace0\ub4f1\ud559\uad50","address":"\uc778\ucc9c\uad11\uc5ed\uc2dc \uc5f0\uc218\uad6c \uc1a1\ub3c4\ub3d9","medical":14,"dent":1,"ori":0,"vet":1,"medicine":12,"total":28,"formatted_address":"50 Convensia-daero 42beon-gil, Songdo 2(i)-dong, Yeonsu-gu, Incheon, South Korea","lat":37.4013085,"lng":126.648955},{"name":"\uc6b4\uc815\uace0\ub4f1\ud559\uad50","kind":"\uc790\uc728\uace0\ub4f1\ud559\uad50","address":"\uacbd\uae30\ub3c4 \ud30c\uc8fc\uc2dc \ubaa9\ub3d9\ub3d9","medical":9,"dent":3,"ori":1,"vet":2,"medicine":13,"total":28,"formatted_address":"267 Waseoksunhwan-ro, Paju-si, Gyeonggi-do, South Korea","lat":37.7218041,"lng":126.7364413},{"name":"\ub300\uac74\uace0\ub4f1\ud559\uad50","kind":"\uc790\uc728\ud615\uc0ac\ub9bd\uace0","address":"\ub300\uad6c\uad11\uc5ed\uc2dc \ub2ec\uc11c\uad6c \uc6d4\uc131\ub3d9","medical":14,"dent":2,"ori":6,"vet":0,"medicine":6,"total":28,"formatted_address":"46 Wolgok-ro 94-gil, Bon-dong, Dalseo-gu, Daegu, South Korea","lat":35.8337192,"lng":128.5293394},{"name":"\uc77c\uc0b0\ub300\uc9c4\uace0\ub4f1\ud559\uad50","kind":"\uc77c\ubc18\uace0\ub4f1\ud559\uad50","address":"\uacbd\uae30\ub3c4 \uace0\uc591\uc2dc\uc77c\uc0b0\uc11c\uad6c \ub300\ud654\ub3d9\t","medical":16,"dent":3,"ori":0,"vet":0,"medicine":6,"total":25,"formatted_address":"246 Daesan-ro, Ilsanseo-gu, Goyang-si, Gyeonggi-do, South Korea","lat":37.6806803,"lng":126.7517335},{"name":"\ub355\ubb38\uc5ec\uc790\uace0\ub4f1\ud559\uad50","kind":"\uc77c\ubc18\uace0","address":"\ubd80\uc0b0\uad11\uc5ed\uc2dc \uc218\uc601\uad6c \uad11\uc548\ub3d9","medical":18,"dent":1,"ori":0,"vet":0,"medicine":5,"total":24,"formatted_address":"114 Yeonsu-ro 310(sambaeksip)beon-, Suyeong-gu, Busan, South Korea","lat":35.1674189,"lng":129.1040251},{"name":"\uc601\ub0a8\uace0\ub4f1\ud559\uad50","kind":"\uc77c\ubc18\uace0","address":"\ub300\uad6c\uad11\uc5ed\uc2dc \ub2ec\uc11c\uad6c \uc0c1\uc778\ub3d9","medical":13,"dent":0,"ori":2,"vet":2,"medicine":7,"total":24,"formatted_address":"300 Wolgok-ro, Sangin 1(il)-dong, Dalseo-gu, Daegu, South Korea","lat":35.8210331,"lng":128.5373591},{"name":"\ubd84\ub2f9\uc911\uc559\uace0\ub4f1\ud559\uad50","kind":"\uc77c\ubc18\uace0\ub4f1\ud559\uad50","address":"\uacbd\uae30\ub3c4 \uc131\ub0a8\uc2dc \ubd84\ub2f9\uad6c \uc815\uc790\ub3d9","medical":15,"dent":1,"ori":0,"vet":0,"medicine":7,"total":23,"formatted_address":"174 Buljeong-ro, Bundang-gu, Seongnam-si, Gyeonggi-do, South Korea","lat":37.3605683,"lng":127.1243312},{"name":"\uc11c\ub300\uc804\uace0\ub4f1\ud559\uad50","kind":"\uc77c\ubc18\uace0\ub4f1\ud559\uad50","address":"\ub300\uc804\uad11\uc5ed\uc2dc \uc11c\uad6c \uc6d4\ud3c9\ub3d9","medical":15,"dent":1,"ori":2,"vet":1,"medicine":3,"total":22,"formatted_address":"60 Wolpyeongdong-ro, Seo-gu, Daejeon, South Korea","lat":36.3604929,"lng":127.3692303},{"name":"\ub300\uad6c\ud61c\ud654\uc5ec\uc790\uace0\ub4f1\ud559\uad50","kind":"\uc77c\ubc18\uace0\ub4f1\ud559\uad50","address":"\ub300\uad6c\uad11\uc5ed\uc2dc \uc218\uc131\uad6c \ub9cc\ucd0c\ub3d9","medical":9,"dent":3,"ori":1,"vet":2,"medicine":7,"total":22,"formatted_address":"62 Gyohak-ro 12-gil, Suseong-gu, Daegu, South Korea","lat":35.8501897,"lng":128.6484898},{"name":"\ubb38\uc131\uace0\ub4f1\ud559\uad50","kind":"\uc77c\ubc18\uace0\ub4f1\ud559\uad50","address":"\uad11\uc8fc\uad11\uc5ed\uc2dc \ub0a8\uad6c \ubd09\uc120\ub3d9","medical":17,"dent":3,"ori":1,"vet":0,"medicine":1,"total":22,"formatted_address":"73 Jeseok-ro, Nam-gu, Kwangju, South Korea","lat":35.1202888,"lng":126.9050807},{"name":"\uccad\uc6d0\uace0\ub4f1\ud559\uad50","kind":"\uc77c\ubc18\uace0\ub4f1\ud559\uad50","address":"\uc11c\uc6b8\ud2b9\ubcc4\uc2dc \ub178\uc6d0\uad6c \uc0c1\uacc4\ub3d9","medical":9,"dent":4,"ori":3,"vet":1,"medicine":4,"total":21,"formatted_address":"9 Guryong 5-gil, Ochang-eup, \uccad\uc6d0\uad6c Cheongju, Chungcheongbuk-do, South Korea","lat":36.7137853,"lng":127.4148121},{"name":"\ub3d9\uc778\uace0\ub4f1\ud559\uad50","kind":"\uc77c\ubc18\uace0\ub4f1\ud559\uad50","address":"\ubd80\uc0b0\uad11\uc5ed\uc2dc \ub3d9\ub798\uad6c \uc0ac\uc9c1\ub3d9","medical":10,"dent":2,"ori":3,"vet":0,"medicine":6,"total":21,"formatted_address":"34 Soemi-ro 31beon-gil, Dongnae-gu, Busan, South Korea","lat":35.1976075,"lng":129.0502267},{"name":"\uc870\uc120\ub300\ud559\uad50\ubd80\uc18d\uace0\ub4f1\ud559\uad50","kind":"\uc77c\ubc18\uace0\ub4f1\ud559\uad50","address":"\uad11\uc8fc\uad11\uc5ed\uc2dc \ub3d9\uad6c \ud559\ub3d9","medical":9,"dent":3,"ori":1,"vet":2,"medicine":5,"total":20,"formatted_address":"33 Uijae-ro 33beon-gil, Dong-gu, Kwangju, South Korea","lat":35.1353205,"lng":126.9307421},{"name":"\uc815\uc2e0\uc5ec\uc790\uace0\ub4f1\ud559\uad50","kind":"\uc77c\ubc18\uace0\ub4f1\ud559\uad50","address":"\uc11c\uc6b8\ud2b9\ubcc4\uc2dc \uc1a1\ud30c\uad6c \uc7a0\uc2e4\ub3d9","medical":9,"dent":0,"ori":2,"vet":1,"medicine":7,"total":19,"formatted_address":"16 Olympic-ro 4-gil, Songpa-gu, Seoul, South Korea","lat":37.5087102,"lng":127.0718787},{"name":"\uad11\uc8fc\uc22d\uc77c\uace0\ub4f1\ud559\uad50","kind":"\uc77c\ubc18\uace0\ub4f1\ud559\uad50","address":"\uad11\uc8fc\uad11\uc5ed\uc2dc \ubd81\uad6c \uc77c\uace1\ub3d9","medical":13,"dent":4,"ori":0,"vet":1,"medicine":1,"total":19,"formatted_address":"46-24 Ilgok-dong, Buk-gu, Kwangju, South Korea","lat":35.2180947,"lng":126.8964844},{"name":"\ub0a8\uc131\uace0\ub4f1\ud559\uad50","kind":"\uc790\uc728\ud615\uc0ac\ub9bd\uace0","address":"\uc804\ub77c\ubd81\ub3c4 \uc775\uc0b0\uc2dc \uc2e0\ub3d9","medical":10,"dent":1,"ori":3,"vet":0,"medicine":5,"total":19,"formatted_address":"41 Dongseo-ro 35-gil, Sin-dong, Iksan, Jeollabuk-do, South Korea","lat":35.9568448,"lng":126.9662987},{"name":"\uc124\uc6d4\uc5ec\uc790\uace0\ub4f1\ud559\uad50","kind":"\uc77c\ubc18\uace0\ub4f1\ud559\uad50","address":"\uad11\uc8fc\uad11\uc5ed\uc2dc \ub0a8\uad6c \ubc29\ub9bc\ub3d9","medical":10,"dent":8,"ori":1,"vet":0,"medicine":0,"total":19,"formatted_address":"30 Bangnim-dong, Nam-gu, Kwangju, South Korea","lat":35.1258007,"lng":126.9277892},{"name":"\uc804\uc8fc\ud55c\uc77c\uace0\ub4f1\ud559\uad50","kind":"\uc77c\ubc18\uace0\ub4f1\ud559\uad50","address":"\uc804\ub77c\ubd81\ub3c4 \uc804\uc8fc\uc2dc \uc644\uc0b0\uad6c \uc11c\uc2e0\ub3d9","medical":16,"dent":1,"ori":1,"vet":0,"medicine":1,"total":19,"formatted_address":"442 Baekje-daero, Seosin-dong, Wansan-gu, Jeonju, Jeollabuk-do, South Korea","lat":35.8319835,"lng":127.1237431},{"name":"\uc774\ub9ac\uace0\ub4f1\ud559\uad50","kind":"\uc77c\ubc18\uace0\ub4f1\ud559\uad50","address":"\uc804\ub77c\ubd81\ub3c4 \uc775\uc0b0\uc2dc \ub0a8\uc911\ub3d9","medical":13,"dent":2,"ori":0,"vet":0,"medicine":3,"total":18,"formatted_address":"35 Iksan-daero 36-gil, Iksan, Jeollabuk-do, South Korea","lat":35.9492011,"lng":126.9558709},{"name":"\uc11c\uc6b8\uc0bc\uc721\uace0\ub4f1\ud559\uad50","kind":"\uc77c\ubc18\uace0\ub4f1\ud559\uad50","address":"\uacbd\uae30\ub3c4 \uad6c\ub9ac\uc2dc \uad50\ubb38\ub3d9","medical":9,"dent":1,"ori":1,"vet":2,"medicine":5,"total":18,"formatted_address":"70 Achasan-ro 487beon-gil, Guri-si, Gyeonggi-do, South Korea","lat":37.5964298,"lng":127.1252645},{"name":"\ud55c\uc601\uace0\ub4f1\ud559\uad50","kind":"\uc77c\ubc18\uace0\ub4f1\ud559\uad50","address":"\uc11c\uc6b8\ud2b9\ubcc4\uc2dc \uac15\ub3d9\uad6c \uc0c1\uc77c\ub3d9","medical":14,"dent":0,"ori":0,"vet":0,"medicine":4,"total":18,"formatted_address":"832 Dongnam-ro, Gangdong-gu, Seoul, South Korea","lat":37.5488717,"lng":127.1582951},{"name":"\uac70\ucc3d\ub300\uc131\uace0\ub4f1\ud559\uad50","kind":"\uc77c\ubc18\uace0\ub4f1\ud559\uad50","address":"\uacbd\uc0c1\ub0a8\ub3c4 \uac70\ucc3d\uad70 \uac70\ucc3d\uc74d \uc0c1\ub9bc\ub9ac","medical":18,"dent":0,"ori":0,"vet":0,"medicine":0,"total":18,"formatted_address":"South Korea, Gyeongsangnam-do, Geochang, Geochang-eup, Geoyeol-ro, 81 KR","lat":35.6900924,"lng":127.9029272},{"name":"\ubcf4\uc131\uace0\ub4f1\ud559\uad50","kind":"\uc77c\ubc18\uace0\ub4f1\ud559\uad50","address":"\uc11c\uc6b8\ud2b9\ubcc4\uc2dc \uc1a1\ud30c\uad6c \ubc29\uc774\ub3d9","medical":7,"dent":1,"ori":7,"vet":2,"medicine":0,"total":17,"formatted_address":"1278 Yangjae-daero, Songpa-gu, Seoul, South Korea","lat":37.5193212,"lng":127.1352055},{"name":"\uacc4\uc131\uace0\ub4f1\ud559\uad50","kind":"\uc790\uc728\uace0\ub4f1\ud559\uad50","address":"\ub300\uad6c\uad11\uc5ed\uc2dc \uc11c\uad6c \uc0c1\ub9ac\ub3d9","medical":7,"dent":2,"ori":5,"vet":0,"medicine":3,"total":17,"formatted_address":"171 Saebang-ro, Sangni-dong, Seo-gu, Daegu, South Korea","lat":35.8710829,"lng":128.5287288},{"name":"\uad70\ud3ec\uace0\ub4f1\ud559\uad50","kind":"\uc77c\ubc18\uace0\ub4f1\ud559\uad50","address":"\uacbd\uae30\ub3c4 \uad70\ud3ec\uc2dc \uae08\uc815\ub3d9 ","medical":13,"dent":4,"ori":0,"vet":0,"medicine":0,"total":17,"formatted_address":"118 Ogeum-ro, Gunpo-si, Gyeonggi-do, South Korea","lat":37.3576504,"lng":126.9405155},{"name":"\ub2a5\uc8fc\uace0\ub4f1\ud559\uad50","kind":"\uc77c\ubc18\uace0\ub4f1\ud559\uad50","address":"\uc804\ub77c\ub0a8\ub3c4 \ud654\uc21c\uad70 \ub2a5\uc8fc\uba74","medical":11,"dent":0,"ori":2,"vet":0,"medicine":4,"total":17,"formatted_address":"Neungju-myeon, Hwasun-gun, Jeollanam-do, South Korea","lat":34.9898628,"lng":126.9579661},{"name":"\uacbd\uad6c\uace0\ub4f1\ud559\uad50","kind":"\uc77c\ubc18\uace0\ub4f1\ud559\uad50","address":"\uacbd\uc0c1\ubd81\ub3c4 \uad6c\ubbf8\uc2dc \ubd09\uace1\ub3d9","medical":10,"dent":2,"ori":2,"vet":0,"medicine":2,"total":16,"formatted_address":"South Korea, Gyeongsangbuk-do, Gumi, \ubd09\uace1\ub3d9 \ubd09\uace1\ub85c9\uae38 25 KR","lat":36.1480294,"lng":128.3079366},{"name":"\ubc31\uc554\uace0\ub4f1\ud559\uad50","kind":"\uc77c\ubc18\uace0\ub4f1\ud559\uad50","address":"\uc11c\uc6b8\ud2b9\ubcc4\uc2dc \uc591\ucc9c\uad6c \uc2e0\uc815\ub3d9","medical":8,"dent":2,"ori":1,"vet":1,"medicine":4,"total":16,"formatted_address":"16 Sinjeong-ro 13-gil, Sinjeong-dong, Yangcheon-gu, Seoul, South Korea","lat":37.5119279,"lng":126.8448213},{"name":"\uc601\ud765\uace0\ub4f1\ud559\uad50","kind":"\uc77c\ubc18\uace0\ub4f1\ud559\uad50","address":"\uc804\ub77c\ub0a8\ub3c4 \ubaa9\ud3ec\uc2dc \uc0c1\ub3d9","medical":8,"dent":3,"ori":0,"vet":1,"medicine":4,"total":16,"formatted_address":"55 Sang-dong, Mokpo-si, Jeollanam-do, South Korea","lat":34.8052192,"lng":126.4167621},{"name":"\uc2e0\uc77c\uace0\ub4f1\ud559\uad50","kind":"\uc790\uc728\uace0\ub4f1\ud559\uad50","address":"\uc11c\uc6b8\ud2b9\ubcc4\uc2dc \uac15\ubd81\uad6c \ubbf8\uc544\ub3d9","medical":12,"dent":1,"ori":0,"vet":0,"medicine":3,"total":16,"formatted_address":"20 Solmae-ro 49-gil, Gangbuk-gu, Seoul, South Korea","lat":37.6282824,"lng":127.0282661},{"name":"\uc601\ub3d9\uc77c\uace0\ub4f1\ud559\uad50","kind":"\uc77c\ubc18\uace0\ub4f1\ud559\uad50","address":"\uc11c\uc6b8\ud2b9\ubcc4\uc2dc \uc1a1\ud30c\uad6c \uc7a0\uc2e4\ub3d9","medical":12,"dent":0,"ori":2,"vet":0,"medicine":2,"total":16,"formatted_address":"93 Seokchonhosu-ro, Jamsil 3(sam)-dong, Songpa-gu, Seoul, South Korea","lat":37.5100795,"lng":127.0895484},{"name":"\uc774\ud654\uc5ec\uc790\uace0\ub4f1\ud559\uad50","kind":"\uc790\uc728\uace0\ub4f1\ud559\uad50","address":"\uc11c\uc6b8\ud2b9\ubcc4\uc2dc \uc911\uad6c \uc815\ub3d9","medical":7,"dent":3,"ori":0,"vet":1,"medicine":5,"total":16,"formatted_address":"26 Jeongdong-gil, Jung-gu, Seoul, South Korea","lat":37.5657014,"lng":126.9712202},{"name":"\uc804\uc8fc\uae30\uc804\uc5ec\uc790\uace0\ub4f1\ud559\uad50","kind":"\uc77c\ubc18\uace0\ub4f1\ud559\uad50","address":"\uc804\ub77c\ubd81\ub3c4 \uc804\uc8fc\uc2dc \uc644\uc0b0\uad6c \ud6a8\uc790\ub3d93\uac00","medical":11,"dent":1,"ori":1,"vet":0,"medicine":3,"total":16,"formatted_address":"133 Yuyeon-ro, Wansan-gu, Jeonju, Jeollabuk-do, South Korea","lat":35.827025,"lng":127.099811},{"name":"\uc7a0\uc2e0\uace0\ub4f1\ud559\uad50","kind":"\uc77c\ubc18\uace0\ub4f1\ud559\uad50","address":"\uc11c\uc6b8\ud2b9\ubcc4\uc2dc \uc1a1\ud30c\uad6c \uc7a0\uc2e4\ub3d9","medical":10,"dent":0,"ori":0,"vet":0,"medicine":6,"total":16,"formatted_address":"24 Jamsil-ro, Songpa-gu, Seoul, South Korea","lat":37.5151526,"lng":127.0893428},{"name":"\ub300\uc9c4\uc5ec\uc790\uace0\ub4f1\ud559\uad50","kind":"\uc77c\ubc18\uace0\ub4f1\ud559\uad50","address":"\uc11c\uc6b8\ud2b9\ubcc4\uc2dc \ub178\uc6d0\uad6c \uc911\uacc4\ub3d9","medical":8,"dent":0,"ori":3,"vet":2,"medicine":2,"total":15,"formatted_address":"438 Gongneung-ro, Nowon-gu, Seoul, South Korea","lat":37.646157,"lng":127.0671138},{"name":"\uace0\ub824\uace0\ub4f1\ud559\uad50","kind":"\uc77c\ubc18\uace0\ub4f1\ud559\uad50","address":"\uad11\uc8fc\uad11\uc5ed\uc2dc \ubd81\uad6c \uc0bc\uac01\ub3d9","medical":8,"dent":1,"ori":2,"vet":1,"medicine":3,"total":15,"formatted_address":"369 Seoljuk-ro, Samgak-dong, Buk-gu, Kwangju, South Korea","lat":35.1935611,"lng":126.8967004},{"name":"\ud3ec\ud56d\uc911\uc559\uc5ec\uc790\uace0\ub4f1\ud559\uad50","kind":"\uc77c\ubc18\uace0\ub4f1\ud559\uad50","address":"\uacbd\uc0c1\ubd81\ub3c4 \ud3ec\ud56d\uc2dc \ubd81\uad6c \uc6b0\ud604\ub3d9","medical":7,"dent":2,"ori":1,"vet":1,"medicine":4,"total":15,"formatted_address":"7 Sotijae-ro 151beon-gil, Buk-gu, Pohang, Gyeongsangbuk-do, South Korea","lat":36.0641491,"lng":129.3475632},{"name":"\uac70\ucc3d\uace0\ub4f1\ud559\uad50","kind":"\uc77c\ubc18\uace0\ub4f1\ud559\uad50","address":"\uacbd\uc0c1\ub0a8\ub3c4 \uac70\ucc3d\uad70 \uac70\ucc3d\uc74d \uc911\uc559\ub9ac","medical":7,"dent":1,"ori":2,"vet":0,"medicine":5,"total":15,"formatted_address":"36 Jukjeon 4-gil, Geochang-eup, Geochang, Gyeongsangnam-do, South Korea","lat":35.6922291,"lng":127.9109831},{"name":"\uc22d\ub355\uace0\ub4f1\ud559\uad50","kind":"\uc77c\ubc18\uace0\ub4f1\ud559\uad50","address":"\uad11\uc8fc\uad11\uc5ed\uc2dc \uad11\uc0b0\uad6c \uc6d4\uacc4\ub3d9","medical":7,"dent":2,"ori":0,"vet":0,"medicine":6,"total":15,"formatted_address":"117-8 Wolgye-dong, Gwangsan-gu, Kwangju, South Korea","lat":35.2144275,"lng":126.8392121},{"name":"\ud61c\ud654\uc5ec\uc790\uace0\ub4f1\ud559\uad50","kind":"\uc77c\ubc18\uace0\ub4f1\ud559\uad50","address":"\ubd80\uc0b0\uad11\uc5ed\uc2dc \ub3d9\ub798\uad6c \uba85\uc7a5\ub3d9","medical":9,"dent":0,"ori":0,"vet":1,"medicine":4,"total":14,"formatted_address":"23 Myeongjang-ro 99beon-gil, Dongnae-gu, Busan, South Korea","lat":35.2031635,"lng":129.1114431},{"name":"\uc804\ubd81\uc5ec\uc790\uace0\ub4f1\ud559\uad50","kind":"\uc77c\ubc18\uace0\ub4f1\ud559\uad50","address":"\uc804\ub77c\ubd81\ub3c4 \uc804\uc8fc\uc2dc \ub355\uc9c4\uad6c \uace0\ub791\ub3d9","medical":7,"dent":4,"ori":0,"vet":0,"medicine":3,"total":14,"formatted_address":"721-1 Gorang-dong, Deokjin-gu, Jeonju, Jeollabuk-do, South Korea","lat":35.8733251,"lng":127.0850052},{"name":"\ubaa9\ud3ec\ub9c8\ub9ac\uc544\ud68c\uace0\ub4f1\ud559\uad50","kind":"\uc77c\ubc18\uace0\ub4f1\ud559\uad50","address":"\uc804\ub77c\ub0a8\ub3c4 \ubaa9\ud3ec\uc2dc \uc6a9\ub2f9\ub3d9","medical":10,"dent":3,"ori":1,"vet":0,"medicine":0,"total":14,"formatted_address":"229 Yangeul-ro, Yonghae-dong, Mokpo-si, Jeollanam-do, South Korea","lat":34.8126827,"lng":126.3953757},{"name":"\ud559\uc131\uace0\ub4f1\ud559\uad50","kind":"\uc77c\ubc18\uace0\ub4f1\ud559\uad50","address":"\uc6b8\uc0b0\uad11\uc5ed\uc2dc \ub0a8\uad6c \uc2e0\uc815\ub3d9","medical":10,"dent":3,"ori":1,"vet":0,"medicine":0,"total":14,"formatted_address":"436 Munsu-ro, Nam-gu, Ulsan, South Korea","lat":35.5312509,"lng":129.3002988},{"name":"\uc0b4\ub808\uc2dc\uc624\uace0\ub4f1\ud559\uad50","kind":"\uc77c\ubc18\uace0\ub4f1\ud559\uad50","address":"\uad11\uc8fc\uad11\uc5ed\uc2dc \ubd81\uad6c \uc77c\uace1\ub3d9","medical":8,"dent":2,"ori":1,"vet":0,"medicine":3,"total":14,"formatted_address":"482 Ilgok-dong, Buk-gu, Kwangju, South Korea","lat":35.216567,"lng":126.8919015},{"name":"\uc804\uc77c\uace0\ub4f1\ud559\uad50","kind":"\uc77c\ubc18\uace0\ub4f1\ud559\uad50","address":"\uc804\ub77c\ubd81\ub3c4 \uc804\uc8fc\uc2dc \uc644\uc0b0\uad6c \ud6a8\uc790\ub3d92\uac00","medical":10,"dent":3,"ori":0,"vet":0,"medicine":1,"total":14,"formatted_address":"249 Ujeon-ro, Hyojadong 3(sam)-ga, Wansan-gu, Jeonju, Jeollabuk-do, South Korea","lat":35.8156925,"lng":127.0997562},{"name":"\uc11c\uc6b8\uace0\ub4f1\ud559\uad50","kind":"\uc77c\ubc18\uace0\ub4f1\ud559\uad50","address":"\uc11c\uc6b8\ud2b9\ubcc4\uc2dc \uc11c\ucd08\uad6c \uc11c\ucd08\ub3d9","medical":10,"dent":1,"ori":2,"vet":0,"medicine":0,"total":13,"formatted_address":"197 Hyoryeong-ro, Seocho-gu, Seoul, South Korea","lat":37.4842697,"lng":127.005399},{"name":"\uc11c\uac15\uace0\ub4f1\ud559\uad50","kind":"\uc77c\ubc18\uace0\ub4f1\ud559\uad50","address":"\uad11\uc8fc\uad11\uc5ed\uc2dc \ubd81\uad6c \uc6b4\uc554\ub3d9","medical":9,"dent":1,"ori":1,"vet":0,"medicine":2,"total":13,"formatted_address":"1 Seogang-ro, Unam 1(il)-dong, Buk-gu, Gwangju, South Korea","lat":35.1749236,"lng":126.8694355},{"name":"\uc601\ub3d9\uace0\ub4f1\ud559\uad50","kind":"\uc77c\ubc18\uace0\ub4f1\ud559\uad50","address":"\uc11c\uc6b8\ud2b9\ubcc4\uc2dc \uac15\ub0a8\uad6c \uccad\ub2f4\ub3d9","medical":11,"dent":1,"ori":1,"vet":0,"medicine":0,"total":13,"formatted_address":"742 Seolleung-ro, Gangnam-gu, Seoul, South Korea","lat":37.5205869,"lng":127.0426288},{"name":"\ud658\uc77c\uace0\ub4f1\ud559\uad50","kind":"\uc77c\ubc18\uace0\ub4f1\ud559\uad50","address":"\uc11c\uc6b8\ud2b9\ubcc4\uc2dc \uc911\uad6c \ub9cc\ub9ac\ub3d92\uac00","medical":12,"dent":0,"ori":0,"vet":0,"medicine":1,"total":13,"formatted_address":"47 Hwanil-gil, Jung-gu, Seoul, South Korea","lat":37.5538139,"lng":126.9621659},{"name":"\uad70\uc0b0\uc911\uc559\uace0\ub4f1\ud559\uad50","kind":"\uc790\uc728\uace0\ub4f1\ud559\uad50","address":"\uc804\ub77c\ubd81\ub3c4 \uad70\uc0b0\uc2dc \uc131\uc0b0\uba74 \ub3c4\uc554\ub9ac","medical":8,"dent":0,"ori":4,"vet":1,"medicine":0,"total":13,"formatted_address":"13 Gunjangdae-gil, Seongsan-myeon, Gunsan, Jeollabuk-do, South Korea","lat":36.0017432,"lng":126.7851151},{"name":"\ubd84\ub2f9\uc601\ub355\uc5ec\uc790\uace0\ub4f1\ud559\uad50","kind":"\uc77c\ubc18\uace0\ub4f1\ud559\uad50","address":"\uacbd\uae30\ub3c4 \uc131\ub0a8\uc2dc \ubd84\ub2f9\uad6c \uc57c\ud0d1\ub3d9","medical":10,"dent":1,"ori":1,"vet":0,"medicine":1,"total":13,"formatted_address":"592\ubc88\uae38 13 Pangyo-ro, Bundang-gu, Seongnam-si, Gyeonggi-do, South Korea","lat":37.40503,"lng":127.13882},{"name":"\uc774\ub9e4\uace0\ub4f1\ud559\uad50","kind":"\uc77c\ubc18\uace0\ub4f1\ud559\uad50","address":"\uacbd\uae30\ub3c4 \uc131\ub0a8\uc2dc \ubd84\ub2f9\uad6c \uc774\ub9e4\ub3d9","medical":7,"dent":0,"ori":0,"vet":1,"medicine":4,"total":12,"formatted_address":"1 Tancheon-ro, Bundang-gu, Seongnam-si, Gyeonggi-do, South Korea","lat":37.3926922,"lng":127.1222477},{"name":"\uc120\uc815\uace0\ub4f1\ud559\uad50","kind":"\uc77c\ubc18\uace0\ub4f1\ud559\uad50","address":"\uc11c\uc6b8\ud2b9\ubcc4\uc2dc \uc740\ud3c9\uad6c \uac08\ud604\ub3d9 ","medical":9,"dent":1,"ori":0,"vet":0,"medicine":2,"total":12,"formatted_address":null,"lat":null,"lng":null},{"name":"\uad11\uc8fc\uc778\uc131\uace0\ub4f1\ud559\uad50","kind":"\uc77c\ubc18\uace0\ub4f1\ud559\uad50","address":"\uad11\uc8fc\uad11\uc5ed\uc2dc \ub0a8\uad6c \uc1a1\ud558\ub3d9","medical":8,"dent":1,"ori":0,"vet":0,"medicine":3,"total":12,"formatted_address":"390 Seomun-daero, Nam-gu, Gwangju, South Korea","lat":35.1024693,"lng":126.8812665},{"name":"\ud638\ub0a8\uc81c\uc77c\uace0\ub4f1\ud559\uad50","kind":"\uc77c\ubc18\uace0\ub4f1\ud559\uad50","address":"\uc804\ub77c\ubd81\ub3c4 \uc804\uc8fc\uc2dc \uc644\uc0b0\uad6c \ud6a8\uc790\ub3d93\uac00","medical":8,"dent":2,"ori":1,"vet":0,"medicine":1,"total":12,"formatted_address":"53 Seowon-ro, Hyoja 4(sa)-dong, Wansan-gu, Jeonju, Jeollabuk-do, South Korea","lat":35.8144441,"lng":127.0998548},{"name":"\uc804\uc8fc\uc911\uc559\uc5ec\uc790\uace0\ub4f1\ud559\uad50","kind":"\uc77c\ubc18\uace0\ub4f1\ud559\uad50","address":"\uc804\ub77c\ubd81\ub3c4 \uc804\uc8fc\uc2dc \ub355\uc9c4\uad6c \uc6b0\uc544\ub3d91\uac00","medical":8,"dent":2,"ori":0,"vet":1,"medicine":1,"total":12,"formatted_address":"25 Seokso-ro, Deokjin-gu, Jeonju, Jeollabuk-do, South Korea","lat":35.8282417,"lng":127.1685039},{"name":"\ubcf4\ubb38\uace0\ub4f1\ud559\uad50","kind":"\uc77c\ubc18\uace0\ub4f1\ud559\uad50","address":"\ub300\uc804\uad11\uc5ed\uc2dc \ub3d9\uad6c \uc0bc\uc131\ub3d9","medical":7,"dent":1,"ori":2,"vet":0,"medicine":1,"total":11,"formatted_address":"57 Uam-ro, Dong-gu, Daejeon, South Korea","lat":36.3368587,"lng":127.4235438},{"name":"\uc81c\uc8fc\uc81c\uc77c\uace0\ub4f1\ud559\uad50","kind":"\uc77c\ubc18\uace0\ub4f1\ud559\uad50","address":"\uc81c\uc8fc\ud2b9\ubcc4\uc790\uce58\ub3c4 \uc81c\uc8fc\uc2dc \ub178\ud615\ub3d9","medical":7,"dent":1,"ori":0,"vet":0,"medicine":3,"total":11,"formatted_address":"22 Jingun-gil, Cheju, Jeju-do, South Korea","lat":33.4799494,"lng":126.4797053},{"name":"\ub300\uc804\ub454\uc0b0\uc5ec\uc790\uace0\ub4f1\ud559\uad50","kind":"\uc77c\ubc18\uace0\ub4f1\ud559\uad50","address":"\ub300\uc804\uad11\uc5ed\uc2dc \uc11c\uad6c \uac08\ub9c8\ub3d9","medical":11,"dent":0,"ori":0,"vet":0,"medicine":0,"total":11,"formatted_address":"33 Galmayeok-ro, Seo-gu, Daejeon, South Korea","lat":36.3530976,"lng":127.3732385},{"name":"\ub300\uad6c\uc0c1\uc6d0\uace0\ub4f1\ud559\uad50","kind":"\uc77c\ubc18\uace0\ub4f1\ud559\uad50","address":"\ub300\uad6c\uad11\uc5ed\uc2dc \ub2ec\uc11c\uad6c \uc0c1\uc778\ub3d9","medical":8,"dent":0,"ori":3,"vet":0,"medicine":0,"total":11,"formatted_address":"241 Wolbae-ro, Dalseo-gu, Daegu, South Korea","lat":35.8220594,"lng":128.5382381},{"name":"\uad11\uc8fc\ub3d9\uc131\uace0\ub4f1\ud559\uad50","kind":"\uc77c\ubc18\uace0\ub4f1\ud559\uad50","address":"\uad11\uc8fc\uad11\uc5ed\uc2dc \ub0a8\uad6c \uc9c4\uc6d4\ub3d9","medical":8,"dent":1,"ori":2,"vet":0,"medicine":0,"total":11,"formatted_address":"20 Seomun-daero 627beon-gil, Jinwol-dong, Nam-gu, Gwangju, South Korea","lat":35.1156067,"lng":126.896284},{"name":"\uc720\uc2e0\uace0\ub4f1\ud559\uad50","kind":"\uc77c\ubc18\uace0\ub4f1\ud559\uad50","address":"\uacbd\uae30\ub3c4 \uc218\uc6d0\uc2dc \ud314\ub2ec\uad6c \uc6b0\ub9cc\ub3d9","medical":8,"dent":1,"ori":0,"vet":0,"medicine":2,"total":11,"formatted_address":"South Korea, \uacbd\uae30\ub3c4 \uc218\uc6d0\uc2dc \ud314\ub2ec\uad6c \uc6d4\ub4dc\ucef5\ub85c 216","lat":37.282043,"lng":127.041832},{"name":"\ub2ec\uc131\uace0\ub4f1\ud559\uad50","kind":"\uc790\uc728\uace0\ub4f1\ud559\uad50","address":"\ub300\uad6c\uad11\uc5ed\uc2dc \uc11c\uad6c \ub0b4\ub2f9\ub3d9","medical":7,"dent":1,"ori":0,"vet":0,"medicine":3,"total":11,"formatted_address":"1725 Dalgubeol-daero, Seo-gu, Daegu, South Korea","lat":35.8584184,"lng":128.554578},{"name":"\ub3d9\ub798\uc5ec\uc790\uace0\ub4f1\ud559\uad50","kind":"\uc77c\ubc18\uace0\ub4f1\ud559\uad50","address":"\ubd80\uc0b0\uad11\uc5ed\uc2dc \uae08\uc815\uad6c \uad6c\uc11c\ub3d9","medical":7,"dent":0,"ori":0,"vet":0,"medicine":3,"total":10,"formatted_address":"20 Cheyukgongwon-ro, Geumjeong-gu, Busan, South Korea","lat":35.2463332,"lng":129.0963369},{"name":"\ub2e4\uc0ac\uace0\ub4f1\ud559\uad50","kind":"\uc77c\ubc18\uace0\ub4f1\ud559\uad50","address":"\ub300\uad6c\uad11\uc5ed\uc2dc \ub2ec\uc131\uad70 \ub2e4\uc0ac\uc74d \uc8fd\uace1\ub9ac","medical":10,"dent":0,"ori":0,"vet":0,"medicine":0,"total":10,"formatted_address":"839 Dalgubeol-daero, Dasa-eup, Dalseong-gun, Daegu, South Korea","lat":35.8617956,"lng":128.4626802},{"name":"\ube0c\ub2c8\uc5d8\uace0\ub4f1\ud559\uad50","kind":"\uc77c\ubc18\uace0\ub4f1\ud559\uad50","address":"\ubd80\uc0b0\uad11\uc5ed\uc2dc \uae08\uc815\uad6c \uad6c\uc11c\ub3d9","medical":7,"dent":0,"ori":0,"vet":2,"medicine":0,"total":9,"formatted_address":"154 Cheyukgongwon-ro, Geumjeong-gu, Busan, South Korea","lat":35.2547262,"lng":129.1035067},{"name":"\uad11\ub355\uace0\ub4f1\ud559\uad50","kind":"\uc77c\ubc18\uace0\ub4f1\ud559\uad50","address":"\uad11\uc8fc\uad11\uc5ed\uc2dc \uc11c\uad6c \ud654\uc815\ub3d9","medical":7,"dent":0,"ori":1,"vet":1,"medicine":0,"total":9,"formatted_address":"202 Hwajeong-ro, Seo-gu, Kwangju, South Korea","lat":35.1443643,"lng":126.8791063},{"name":"\uc13c\ud140\uace0\ub4f1\ud559\uad50","kind":"\uc77c\ubc18\uace0\ub4f1\ud559\uad50","address":"\ubd80\uc0b0\uad11\uc5ed\uc2dc \ud574\uc6b4\ub300\uad6c \uc7ac\uc1a1\ub3d9","medical":7,"dent":0,"ori":0,"vet":0,"medicine":2,"total":9,"formatted_address":"246 Haeun-daero, Haeundae, Busan, South Korea","lat":35.1769671,"lng":129.1274161},{"name":"\uacbd\ud76c\uace0\ub4f1\ud559\uad50","kind":"\uc790\uc728\uace0\ub4f1\ud559\uad50","address":"\uc11c\uc6b8\ud2b9\ubcc4\uc2dc \ub3d9\ub300\ubb38\uad6c \ud68c\uae30\ub3d9","medical":7,"dent":0,"ori":0,"vet":0,"medicine":0,"total":7,"formatted_address":"26 Kyungheedae-ro, Dongdaemun-gu, Seoul, South Korea","lat":37.5945328,"lng":127.0548501},{"name":"\ub300\uc804\uace0\ub4f1\ud559\uad50","kind":"\uc790\uc728\uace0\ub4f1\ud559\uad50","address":"\ub300\uc804\uad11\uc5ed\uc2dc \uc911\uad6c \ub300\ud765\ub3d9","medical":0,"dent":0,"ori":0,"vet":0,"medicine":0,"total":0,"formatted_address":"110 Daeheung-ro, Jung-gu, Daejeon, South Korea","lat":36.3220349,"lng":127.4240267}]
